$GPGGA,024003.465,1205.655,S,07701.472,W,1,12,1.0,0.0,M,0.0,M,,*63
$GPGSA,A,3,01,02,03,04,05,06,07,08,09,10,11,12,1.0,1.0,1.0*30
$GPRMC,024003.465,A,1205.655,S,07701.472,W,000.0,000.0,221124,000.0,W*71
$GPGGA,024004.465,1205.655,S,07701.472,W,1,12,1.0,0.0,M,0.0,M,,*64
$GPGSA,A,3,01,02,03,04,05,06,07,08,09,10,11,12,1.0,1.0,1.0*30
$GPRMC,024004.465,A,1205.655,S,07701.472,W,001.2,135.0,221124,000.0,W*72
$GPGGA,024005.465,1205.655,S,07701.472,W,1,12,1.0,0.0,M,0.0,M,,*65
$GPGSA,A,3,01,02,03,04,05,06,07,08,09,10,11,12,1.0,1.0,1.0*30
$GPRMC,024005.465,A,1205.655,S,07701.472,W,001.2,000.0,221124,000.0,W*74
$GPGGA,024006.465,1205.655,S,07701.472,W,1,12,1.0,0.0,M,0.0,M,,*66
$GPGSA,A,3,01,02,03,04,05,06,07,08,09,10,11,12,1.0,1.0,1.0*30
$GPRMC,024006.465,A,1205.655,S,07701.472,W,000.0,000.0,221124,000.0,W*74
$GPGGA,024007.465,1205.655,S,07701.472,W,1,12,1.0,0.0,M,0.0,M,,*67
$GPGSA,A,3,01,02,03,04,05,06,07,08,09,10,11,12,1.0,1.0,1.0*30
$GPRMC,024007.465,A,1205.655,S,07701.472,W,000.0,000.0,221124,000.0,W*75
$GPGGA,024008.465,1205.655,S,07701.472,W,1,12,1.0,0.0,M,0.0,M,,*68
$GPGSA,A,3,01,02,03,04,05,06,07,08,09,10,11,12,1.0,1.0,1.0*30
$GPRMC,024008.465,A,1205.655,S,07701.472,W,000.0,000.0,221124,000.0,W*7A
$GPGGA,024009.465,1205.655,S,07701.472,W,1,12,1.0,0.0,M,0.0,M,,*69
$GPGSA,A,3,01,02,03,04,05,06,07,08,09,10,11,12,1.0,1.0,1.0*30
$GPRMC,024009.465,A,1205.655,S,07701.472,W,000.0,000.0,221124,000.0,W*7B
$GPGGA,024010.465,1205.655,S,07701.472,W,1,12,1.0,0.0,M,0.0,M,,*61
$GPGSA,A,3,01,02,03,04,05,06,07,08,09,10,11,12,1.0,1.0,1.0*30
$GPRMC,024010.465,A,1205.655,S,07701.472,W,000.0,000.0,221124,000.0,W*73
$GPGGA,024011.465,1205.655,S,07701.472,W,1,12,1.0,0.0,M,0.0,M,,*60
$GPGSA,A,3,01,02,03,04,05,06,07,08,09,10,11,12,1.0,1.0,1.0*30
$GPRMC,024011.465,A,1205.655,S,07701.472,W,000.3,090.0,221124,000.0,W*78
$GPGGA,024012.465,1205.655,S,07701.472,W,1,12,1.0,0.0,M,0.0,M,,*63
$GPGSA,A,3,01,02,03,04,05,06,07,08,09,10,11,12,1.0,1.0,1.0*30
$GPRMC,024012.465,A,1205.655,S,07701.472,W,000.4,135.0,221124,000.0,W*72
$GPGGA,024013.465,1205.655,S,07701.472,W,1,12,1.0,0.0,M,0.0,M,,*62
$GPGSA,A,3,01,02,03,04,05,06,07,08,09,10,11,12,1.0,1.0,1.0*30
$GPRMC,024013.465,A,1205.655,S,07701.472,W,000.4,135.0,221124,000.0,W*73
$GPGGA,024014.465,1205.655,S,07701.472,W,1,12,1.0,0.0,M,0.0,M,,*65
$GPGSA,A,3,01,02,03,04,05,06,07,08,09,10,11,12,1.0,1.0,1.0*30
$GPRMC,024014.465,A,1205.655,S,07701.472,W,000.3,270.0,221124,000.0,W*71
$GPGGA,024015.465,1205.655,S,07701.472,W,1,12,1.0,0.0,M,0.0,M,,*64
$GPGSA,A,3,01,02,03,04,05,06,07,08,09,10,11,12,1.0,1.0,1.0*30
$GPRMC,024015.465,A,1205.655,S,07701.472,W,000.3,090.0,221124,000.0,W*7C
$GPGGA,024016.465,1205.655,S,07701.472,W,1,12,1.0,0.0,M,0.0,M,,*67
$GPGSA,A,3,01,02,03,04,05,06,07,08,09,10,11,12,1.0,1.0,1.0*30
$GPRMC,024016.465,A,1205.655,S,07701.472,W,000.3,000.0,221124,000.0,W*76
$GPGGA,024017.465,1205.655,S,07701.472,W,1,12,1.0,0.0,M,0.0,M,,*66
$GPGSA,A,3,01,02,03,04,05,06,07,08,09,10,11,12,1.0,1.0,1.0*30
$GPRMC,024017.465,A,1205.655,S,07701.472,W,000.4,135.0,221124,000.0,W*77
$GPGGA,024018.465,1205.655,S,07701.471,W,1,12,1.0,0.0,M,0.0,M,,*6A
$GPGSA,A,3,01,02,03,04,05,06,07,08,09,10,11,12,1.0,1.0,1.0*30
$GPRMC,024018.465,A,1205.655,S,07701.471,W,000.3,090.0,221124,000.0,W*72
$GPGGA,024019.465,1205.655,S,07701.471,W,1,12,1.0,0.0,M,0.0,M,,*6B
$GPGSA,A,3,01,02,03,04,05,06,07,08,09,10,11,12,1.0,1.0,1.0*30
$GPRMC,024019.465,A,1205.655,S,07701.471,W,000.3,000.0,221124,000.0,W*7A
$GPGGA,024020.465,1205.655,S,07701.471,W,1,12,1.0,0.0,M,0.0,M,,*61
$GPGSA,A,3,01,02,03,04,05,06,07,08,09,10,11,12,1.0,1.0,1.0*30
$GPRMC,024020.465,A,1205.655,S,07701.471,W,000.6,153.4,221124,000.0,W*76
$GPGGA,024021.465,1205.655,S,07701.471,W,1,12,1.0,0.0,M,0.0,M,,*60
$GPGSA,A,3,01,02,03,04,05,06,07,08,09,10,11,12,1.0,1.0,1.0*30
$GPRMC,024021.465,A,1205.655,S,07701.471,W,000.3,090.0,221124,000.0,W*78
$GPGGA,024022.465,1205.655,S,07701.471,W,1,12,1.0,0.0,M,0.0,M,,*63
$GPGSA,A,3,01,02,03,04,05,06,07,08,09,10,11,12,1.0,1.0,1.0*30
$GPRMC,024022.465,A,1205.655,S,07701.471,W,000.3,000.0,221124,000.0,W*72
$GPGGA,024023.465,1205.655,S,07701.471,W,1,12,1.0,0.0,M,0.0,M,,*62
$GPGSA,A,3,01,02,03,04,05,06,07,08,09,10,11,12,1.0,1.0,1.0*30
$GPRMC,024023.465,A,1205.655,S,07701.471,W,000.0,000.0,221124,000.0,W*70
$GPGGA,024024.465,1205.655,S,07701.471,W,1,12,1.0,0.0,M,0.0,M,,*65
$GPGSA,A,3,01,02,03,04,05,06,07,08,09,10,11,12,1.0,1.0,1.0*30
$GPRMC,024024.465,A,1205.655,S,07701.471,W,000.6,116.6,221124,000.0,W*71
$GPGGA,024025.465,1205.655,S,07701.471,W,1,12,1.0,0.0,M,0.0,M,,*64
$GPGSA,A,3,01,02,03,04,05,06,07,08,09,10,11,12,1.0,1.0,1.0*30
$GPRMC,024025.465,A,1205.655,S,07701.471,W,000.6,000.0,221124,000.0,W*70
$GPGGA,024026.465,1205.655,S,07701.471,W,1,12,1.0,0.0,M,0.0,M,,*67
$GPGSA,A,3,01,02,03,04,05,06,07,08,09,10,11,12,1.0,1.0,1.0*30
$GPRMC,024026.465,A,1205.655,S,07701.471,W,000.0,000.0,221124,000.0,W*75
$GPGGA,024027.465,1205.655,S,07701.471,W,1,12,1.0,0.0,M,0.0,M,,*66
$GPGSA,A,3,01,02,03,04,05,06,07,08,09,10,11,12,1.0,1.0,1.0*30
$GPRMC,024027.465,A,1205.655,S,07701.471,W,000.0,000.0,221124,000.0,W*74
$GPGGA,024028.465,1205.655,S,07701.471,W,1,12,1.0,0.0,M,0.0,M,,*69
$GPGSA,A,3,01,02,03,04,05,06,07,08,09,10,11,12,1.0,1.0,1.0*30
$GPRMC,024028.465,A,1205.655,S,07701.471,W,000.0,000.0,221124,000.0,W*7B
$GPGGA,024029.465,1205.655,S,07701.471,W,1,12,1.0,0.0,M,0.0,M,,*68
$GPGSA,A,3,01,02,03,04,05,06,07,08,09,10,11,12,1.0,1.0,1.0*30
$GPRMC,024029.465,A,1205.655,S,07701.471,W,000.0,000.0,221124,000.0,W*7A
$GPGGA,024030.465,1205.655,S,07701.471,W,1,12,1.0,0.0,M,0.0,M,,*60
$GPGSA,A,3,01,02,03,04,05,06,07,08,09,10,11,12,1.0,1.0,1.0*30
$GPRMC,024030.465,A,1205.655,S,07701.471,W,000.0,000.0,221124,000.0,W*72
$GPGGA,024031.465,1205.655,S,07701.471,W,1,12,1.0,0.0,M,0.0,M,,*61
$GPGSA,A,3,01,02,03,04,05,06,07,08,09,10,11,12,1.0,1.0,1.0*30
$GPRMC,024031.465,A,1205.655,S,07701.471,W,000.0,000.0,221124,000.0,W*73
$GPGGA,024032.465,1205.655,S,07701.471,W,1,12,1.0,0.0,M,0.0,M,,*62
$GPGSA,A,3,01,02,03,04,05,06,07,08,09,10,11,12,1.0,1.0,1.0*30
$GPRMC,024032.465,A,1205.655,S,07701.471,W,000.0,000.0,221124,000.0,W*70
$GPGGA,024033.465,1205.655,S,07701.471,W,1,12,1.0,0.0,M,0.0,M,,*63
$GPGSA,A,3,01,02,03,04,05,06,07,08,09,10,11,12,1.0,1.0,1.0*30
$GPRMC,024033.465,A,1205.655,S,07701.471,W,000.0,000.0,221124,000.0,W*71
$GPGGA,024034.465,1205.655,S,07701.471,W,1,12,1.0,0.0,M,0.0,M,,*64
$GPGSA,A,3,01,02,03,04,05,06,07,08,09,10,11,12,1.0,1.0,1.0*30
$GPRMC,024034.465,A,1205.655,S,07701.471,W,000.0,000.0,221124,000.0,W*76
$GPGGA,024035.465,1205.655,S,07701.471,W,1,12,1.0,0.0,M,0.0,M,,*65
$GPGSA,A,3,01,02,03,04,05,06,07,08,09,10,11,12,1.0,1.0,1.0*30
$GPRMC,024035.465,A,1205.655,S,07701.471,W,000.0,000.0,221124,000.0,W*77
$GPGGA,024036.465,1205.655,S,07701.471,W,1,12,1.0,0.0,M,0.0,M,,*66
$GPGSA,A,3,01,02,03,04,05,06,07,08,09,10,11,12,1.0,1.0,1.0*30
$GPRMC,024036.465,A,1205.655,S,07701.471,W,000.9,270.0,221124,000.0,W*78
$GPGGA,024037.465,1205.655,S,07701.471,W,1,12,1.0,0.0,M,0.0,M,,*67
$GPGSA,A,3,01,02,03,04,05,06,07,08,09,10,11,12,1.0,1.0,1.0*30
$GPRMC,024037.465,A,1205.655,S,07701.471,W,001.0,326.3,221124,000.0,W*70
$GPGGA,024038.465,1205.655,S,07701.471,W,1,12,1.0,0.0,M,0.0,M,,*68
$GPGSA,A,3,01,02,03,04,05,06,07,08,09,10,11,12,1.0,1.0,1.0*30
$GPRMC,024038.465,A,1205.655,S,07701.471,W,001.0,000.0,221124,000.0,W*7B
$GPGGA,024039.465,1205.655,S,07701.471,W,1,12,1.0,0.0,M,0.0,M,,*69
$GPGSA,A,3,01,02,03,04,05,06,07,08,09,10,11,12,1.0,1.0,1.0*30
$GPRMC,024039.465,A,1205.655,S,07701.471,W,000.0,000.0,221124,000.0,W*7B
$GPGGA,024040.465,1205.655,S,07701.471,W,1,12,1.0,0.0,M,0.0,M,,*67
$GPGSA,A,3,01,02,03,04,05,06,07,08,09,10,11,12,1.0,1.0,1.0*30
$GPRMC,024040.465,A,1205.655,S,07701.471,W,000.0,000.0,221124,000.0,W*75
$GPGGA,024041.465,1205.655,S,07701.471,W,1,12,1.0,0.0,M,0.0,M,,*66
$GPGSA,A,3,01,02,03,04,05,06,07,08,09,10,11,12,1.0,1.0,1.0*30
$GPRMC,024041.465,A,1205.655,S,07701.471,W,000.6,270.0,221124,000.0,W*77
$GPGGA,024042.465,1205.655,S,07701.472,W,1,12,1.0,0.0,M,0.0,M,,*66
$GPGSA,A,3,01,02,03,04,05,06,07,08,09,10,11,12,1.0,1.0,1.0*30
$GPRMC,024042.465,A,1205.655,S,07701.472,W,000.6,000.0,221124,000.0,W*72
$GPGGA,024043.465,1205.655,S,07701.472,W,1,12,1.0,0.0,M,0.0,M,,*67
$GPGSA,A,3,01,02,03,04,05,06,07,08,09,10,11,12,1.0,1.0,1.0*30
$GPRMC,024043.465,A,1205.655,S,07701.472,W,000.4,315.0,221124,000.0,W*76
$GPGGA,024044.465,1205.655,S,07701.472,W,1,12,1.0,0.0,M,0.0,M,,*60
$GPGSA,A,3,01,02,03,04,05,06,07,08,09,10,11,12,1.0,1.0,1.0*30
$GPRMC,024044.465,A,1205.655,S,07701.472,W,000.4,315.0,221124,000.0,W*71
