$GPGGA,202322.603,1204.664,S,07659.900,W,1,12,1.0,0.0,M,0.0,M,,*60
$GPGSA,A,3,01,02,03,04,05,06,07,08,09,10,11,12,1.0,1.0,1.0*30
$GPRMC,202322.603,A,1204.664,S,07659.900,W,000.1,195.1,191124,000.0,W*77
$GPGGA,202323.603,1204.664,S,07659.900,W,1,12,1.0,0.0,M,0.0,M,,*61
$GPGSA,A,3,01,02,03,04,05,06,07,08,09,10,11,12,1.0,1.0,1.0*30
$GPRMC,202323.603,A,1204.664,S,07659.900,W,000.1,000.0,191124,000.0,W*7A
$GPGGA,202324.603,1204.664,S,07659.900,W,1,12,1.0,0.0,M,0.0,M,,*66
$GPGSA,A,3,01,02,03,04,05,06,07,08,09,10,11,12,1.0,1.0,1.0*30
$GPRMC,202324.603,A,1204.664,S,07659.900,W,000.1,090.0,191124,000.0,W*74
$GPGGA,202325.603,1204.664,S,07659.900,W,1,12,1.0,0.0,M,0.0,M,,*67
$GPGSA,A,3,01,02,03,04,05,06,07,08,09,10,11,12,1.0,1.0,1.0*30
$GPRMC,202325.603,A,1204.664,S,07659.900,W,000.1,090.0,191124,000.0,W*75
$GPGGA,202326.603,1204.664,S,07659.900,W,1,12,1.0,0.0,M,0.0,M,,*64
$GPGSA,A,3,01,02,03,04,05,06,07,08,09,10,11,12,1.0,1.0,1.0*30
$GPRMC,202326.603,A,1204.664,S,07659.900,W,000.1,270.0,191124,000.0,W*7A
$GPGGA,202327.603,1204.664,S,07659.900,W,1,12,1.0,0.0,M,0.0,M,,*65
$GPGSA,A,3,01,02,03,04,05,06,07,08,09,10,11,12,1.0,1.0,1.0*30
$GPRMC,202327.603,A,1204.664,S,07659.900,W,000.1,000.0,191124,000.0,W*7E
$GPGGA,202328.603,1204.664,S,07659.900,W,1,12,1.0,0.0,M,0.0,M,,*6A
$GPGSA,A,3,01,02,03,04,05,06,07,08,09,10,11,12,1.0,1.0,1.0*30
$GPRMC,202328.603,A,1204.664,S,07659.900,W,000.0,000.0,191124,000.0,W*70
$GPGGA,202329.603,1204.664,S,07659.900,W,1,12,1.0,0.0,M,0.0,M,,*6B
$GPGSA,A,3,01,02,03,04,05,06,07,08,09,10,11,12,1.0,1.0,1.0*30
$GPRMC,202329.603,A,1204.664,S,07659.900,W,000.0,000.0,191124,000.0,W*71
$GPGGA,202330.603,1204.664,S,07659.900,W,1,12,1.0,0.0,M,0.0,M,,*63
$GPGSA,A,3,01,02,03,04,05,06,07,08,09,10,11,12,1.0,1.0,1.0*30
$GPRMC,202330.603,A,1204.664,S,07659.900,W,000.1,045.0,191124,000.0,W*79
$GPGGA,202331.603,1204.664,S,07659.900,W,1,12,1.0,0.0,M,0.0,M,,*62
$GPGSA,A,3,01,02,03,04,05,06,07,08,09,10,11,12,1.0,1.0,1.0*30
$GPRMC,202331.603,A,1204.664,S,07659.900,W,000.1,000.0,191124,000.0,W*79
$GPGGA,202332.603,1204.664,S,07659.900,W,1,12,1.0,0.0,M,0.0,M,,*61
$GPGSA,A,3,01,02,03,04,05,06,07,08,09,10,11,12,1.0,1.0,1.0*30
$GPRMC,202332.603,A,1204.664,S,07659.900,W,000.1,090.0,191124,000.0,W*73
$GPGGA,202333.603,1204.664,S,07659.900,W,1,12,1.0,0.0,M,0.0,M,,*60
$GPGSA,A,3,01,02,03,04,05,06,07,08,09,10,11,12,1.0,1.0,1.0*30
$GPRMC,202333.603,A,1204.664,S,07659.900,W,000.1,090.0,191124,000.0,W*72
$GPGGA,202334.603,1204.664,S,07659.900,W,1,12,1.0,0.0,M,0.0,M,,*67
$GPGSA,A,3,01,02,03,04,05,06,07,08,09,10,11,12,1.0,1.0,1.0*30
$GPRMC,202334.603,A,1204.664,S,07659.900,W,000.1,000.0,191124,000.0,W*7C
$GPGGA,202335.603,1204.664,S,07659.900,W,1,12,1.0,0.0,M,0.0,M,,*66
$GPGSA,A,3,01,02,03,04,05,06,07,08,09,10,11,12,1.0,1.0,1.0*30
$GPRMC,202335.603,A,1204.664,S,07659.900,W,000.0,000.0,191124,000.0,W*7C
$GPGGA,202336.603,1204.664,S,07659.900,W,1,12,1.0,0.0,M,0.0,M,,*65
$GPGSA,A,3,01,02,03,04,05,06,07,08,09,10,11,12,1.0,1.0,1.0*30
$GPRMC,202336.603,A,1204.664,S,07659.900,W,000.0,000.0,191124,000.0,W*7F
$GPGGA,202337.603,1204.664,S,07659.900,W,1,12,1.0,0.0,M,0.0,M,,*64
$GPGSA,A,3,01,02,03,04,05,06,07,08,09,10,11,12,1.0,1.0,1.0*30
$GPRMC,202337.603,A,1204.664,S,07659.900,W,000.0,000.0,191124,000.0,W*7E
$GPGGA,202338.603,1204.664,S,07659.900,W,1,12,1.0,0.0,M,0.0,M,,*6B
$GPGSA,A,3,01,02,03,04,05,06,07,08,09,10,11,12,1.0,1.0,1.0*30
$GPRMC,202338.603,A,1204.664,S,07659.900,W,000.1,225.0,191124,000.0,W*75
$GPGGA,202339.603,1204.664,S,07659.900,W,1,12,1.0,0.0,M,0.0,M,,*6A
$GPGSA,A,3,01,02,03,04,05,06,07,08,09,10,11,12,1.0,1.0,1.0*30
$GPRMC,202339.603,A,1204.664,S,07659.900,W,000.1,000.0,191124,000.0,W*71
$GPGGA,202340.603,1204.664,S,07659.900,W,1,12,1.0,0.0,M,0.0,M,,*64
$GPGSA,A,3,01,02,03,04,05,06,07,08,09,10,11,12,1.0,1.0,1.0*30
$GPRMC,202340.603,A,1204.664,S,07659.900,W,000.1,000.0,191124,000.0,W*7F
$GPGGA,202341.603,1204.664,S,07659.900,W,1,12,1.0,0.0,M,0.0,M,,*65
$GPGSA,A,3,01,02,03,04,05,06,07,08,09,10,11,12,1.0,1.0,1.0*30
$GPRMC,202341.603,A,1204.664,S,07659.900,W,000.1,000.0,191124,000.0,W*7E
$GPGGA,202342.603,1204.664,S,07659.900,W,1,12,1.0,0.0,M,0.0,M,,*66
$GPGSA,A,3,01,02,03,04,05,06,07,08,09,10,11,12,1.0,1.0,1.0*30
$GPRMC,202342.603,A,1204.664,S,07659.900,W,000.2,243.4,191124,000.0,W*7F
$GPGGA,202343.603,1204.664,S,07659.900,W,1,12,1.0,0.0,M,0.0,M,,*67
$GPGSA,A,3,01,02,03,04,05,06,07,08,09,10,11,12,1.0,1.0,1.0*30
$GPRMC,202343.603,A,1204.664,S,07659.900,W,000.2,000.0,191124,000.0,W*7F
$GPGGA,202344.603,1204.664,S,07659.900,W,1,12,1.0,0.0,M,0.0,M,,*60
$GPGSA,A,3,01,02,03,04,05,06,07,08,09,10,11,12,1.0,1.0,1.0*30
$GPRMC,202344.603,A,1204.664,S,07659.900,W,000.2,108.4,191124,000.0,W*75
$GPGGA,202345.603,1204.664,S,07659.900,W,1,12,1.0,0.0,M,0.0,M,,*61
$GPGSA,A,3,01,02,03,04,05,06,07,08,09,10,11,12,1.0,1.0,1.0*30
$GPRMC,202345.603,A,1204.664,S,07659.900,W,000.2,333.4,191124,000.0,W*7E
$GPGGA,202346.603,1204.664,S,07659.900,W,1,12,1.0,0.0,M,0.0,M,,*62
$GPGSA,A,3,01,02,03,04,05,06,07,08,09,10,11,12,1.0,1.0,1.0*30
$GPRMC,202346.603,A,1204.664,S,07659.900,W,000.2,000.0,191124,000.0,W*7A
$GPGGA,202347.603,1204.664,S,07659.900,W,1,12,1.0,0.0,M,0.0,M,,*63
$GPGSA,A,3,01,02,03,04,05,06,07,08,09,10,11,12,1.0,1.0,1.0*30
$GPRMC,202347.603,A,1204.664,S,07659.900,W,000.0,000.0,191124,000.0,W*79
$GPGGA,202348.603,1204.664,S,07659.900,W,1,12,1.0,0.0,M,0.0,M,,*6C
$GPGSA,A,3,01,02,03,04,05,06,07,08,09,10,11,12,1.0,1.0,1.0*30
$GPRMC,202348.603,A,1204.664,S,07659.900,W,000.0,000.0,191124,000.0,W*76
$GPGGA,202349.603,1204.664,S,07659.900,W,1,12,1.0,0.0,M,0.0,M,,*6D
$GPGSA,A,3,01,02,03,04,05,06,07,08,09,10,11,12,1.0,1.0,1.0*30
$GPRMC,202349.603,A,1204.664,S,07659.900,W,000.0,000.0,191124,000.0,W*77
$GPGGA,202350.603,1204.664,S,07659.900,W,1,12,1.0,0.0,M,0.0,M,,*65
$GPGSA,A,3,01,02,03,04,05,06,07,08,09,10,11,12,1.0,1.0,1.0*30
$GPRMC,202350.603,A,1204.664,S,07659.900,W,000.0,000.0,191124,000.0,W*7F
$GPGGA,202351.603,1204.664,S,07659.900,W,1,12,1.0,0.0,M,0.0,M,,*64
$GPGSA,A,3,01,02,03,04,05,06,07,08,09,10,11,12,1.0,1.0,1.0*30
$GPRMC,202351.603,A,1204.664,S,07659.900,W,000.0,000.0,191124,000.0,W*7E
$GPGGA,202352.603,1204.664,S,07659.900,W,1,12,1.0,0.0,M,0.0,M,,*67
$GPGSA,A,3,01,02,03,04,05,06,07,08,09,10,11,12,1.0,1.0,1.0*30
$GPRMC,202352.603,A,1204.664,S,07659.900,W,000.0,000.0,191124,000.0,W*7D
$GPGGA,202353.603,1204.664,S,07659.900,W,1,12,1.0,0.0,M,0.0,M,,*66
$GPGSA,A,3,01,02,03,04,05,06,07,08,09,10,11,12,1.0,1.0,1.0*30
$GPRMC,202353.603,A,1204.664,S,07659.900,W,000.0,000.0,191124,000.0,W*7C
$GPGGA,202354.603,1204.664,S,07659.900,W,1,12,1.0,0.0,M,0.0,M,,*61
$GPGSA,A,3,01,02,03,04,05,06,07,08,09,10,11,12,1.0,1.0,1.0*30
$GPRMC,202354.603,A,1204.664,S,07659.900,W,000.0,000.0,191124,000.0,W*7B
$GPGGA,202355.603,1204.664,S,07659.900,W,1,12,1.0,0.0,M,0.0,M,,*60
$GPGSA,A,3,01,02,03,04,05,06,07,08,09,10,11,12,1.0,1.0,1.0*30
$GPRMC,202355.603,A,1204.664,S,07659.900,W,000.0,000.0,191124,000.0,W*7A
$GPGGA,202356.603,1204.664,S,07659.900,W,1,12,1.0,0.0,M,0.0,M,,*63
$GPGSA,A,3,01,02,03,04,05,06,07,08,09,10,11,12,1.0,1.0,1.0*30
$GPRMC,202356.603,A,1204.664,S,07659.900,W,000.0,000.0,191124,000.0,W*79
$GPGGA,202357.603,1204.664,S,07659.900,W,1,12,1.0,0.0,M,0.0,M,,*62
$GPGSA,A,3,01,02,03,04,05,06,07,08,09,10,11,12,1.0,1.0,1.0*30
$GPRMC,202357.603,A,1204.664,S,07659.900,W,000.0,000.0,191124,000.0,W*78
$GPGGA,202358.603,1204.664,S,07659.900,W,1,12,1.0,0.0,M,0.0,M,,*6D
$GPGSA,A,3,01,02,03,04,05,06,07,08,09,10,11,12,1.0,1.0,1.0*30
$GPRMC,202358.603,A,1204.664,S,07659.900,W,000.0,000.0,191124,000.0,W*77
$GPGGA,202359.603,1204.664,S,07659.900,W,1,12,1.0,0.0,M,0.0,M,,*6C
$GPGSA,A,3,01,02,03,04,05,06,07,08,09,10,11,12,1.0,1.0,1.0*30
$GPRMC,202359.603,A,1204.664,S,07659.900,W,000.3,270.0,191124,000.0,W*70
$GPGGA,202400.603,1204.664,S,07659.900,W,1,12,1.0,0.0,M,0.0,M,,*67
$GPGSA,A,3,01,02,03,04,05,06,07,08,09,10,11,12,1.0,1.0,1.0*30
$GPRMC,202400.603,A,1204.664,S,07659.900,W,000.3,000.0,191124,000.0,W*7E
$GPGGA,202401.603,1204.664,S,07659.900,W,1,12,1.0,0.0,M,0.0,M,,*66
$GPGSA,A,3,01,02,03,04,05,06,07,08,09,10,11,12,1.0,1.0,1.0*30
$GPRMC,202401.603,A,1204.664,S,07659.900,W,000.0,000.0,191124,000.0,W*7C
$GPGGA,202402.603,1204.664,S,07659.900,W,1,12,1.0,0.0,M,0.0,M,,*65
$GPGSA,A,3,01,02,03,04,05,06,07,08,09,10,11,12,1.0,1.0,1.0*30
$GPRMC,202402.603,A,1204.664,S,07659.900,W,000.0,000.0,191124,000.0,W*7F
$GPGGA,202403.603,1204.664,S,07659.900,W,1,12,1.0,0.0,M,0.0,M,,*64
$GPGSA,A,3,01,02,03,04,05,06,07,08,09,10,11,12,1.0,1.0,1.0*30
$GPRMC,202403.603,A,1204.664,S,07659.900,W,000.0,000.0,191124,000.0,W*7E
