$GPGGA,234649.295,1203.651,S,07701.702,W,1,12,1.0,0.0,M,0.0,M,,*67
$GPGSA,A,3,01,02,03,04,05,06,07,08,09,10,11,12,1.0,1.0,1.0*30
$GPRMC,234649.295,A,1203.651,S,07701.702,W,000.1,016.7,021124,000.0,W*76
$GPGGA,234650.295,1203.651,S,07701.702,W,1,12,1.0,0.0,M,0.0,M,,*6F
$GPGSA,A,3,01,02,03,04,05,06,07,08,09,10,11,12,1.0,1.0,1.0*30
$GPRMC,234650.295,A,1203.651,S,07701.702,W,000.1,000.0,021124,000.0,W*7E
$GPGGA,234651.295,1203.651,S,07701.702,W,1,12,1.0,0.0,M,0.0,M,,*6E
$GPGSA,A,3,01,02,03,04,05,06,07,08,09,10,11,12,1.0,1.0,1.0*30
$GPRMC,234651.295,A,1203.651,S,07701.702,W,000.0,000.0,021124,000.0,W*7E
$GPGGA,234652.295,1203.651,S,07701.702,W,1,12,1.0,0.0,M,0.0,M,,*6D
$GPGSA,A,3,01,02,03,04,05,06,07,08,09,10,11,12,1.0,1.0,1.0*30
$GPRMC,234652.295,A,1203.651,S,07701.702,W,000.0,000.0,021124,000.0,W*7D
$GPGGA,234653.295,1203.651,S,07701.702,W,1,12,1.0,0.0,M,0.0,M,,*6C
$GPGSA,A,3,01,02,03,04,05,06,07,08,09,10,11,12,1.0,1.0,1.0*30
$GPRMC,234653.295,A,1203.651,S,07701.702,W,000.0,000.0,021124,000.0,W*7C
$GPGGA,234654.295,1203.651,S,07701.702,W,1,12,1.0,0.0,M,0.0,M,,*6B
$GPGSA,A,3,01,02,03,04,05,06,07,08,09,10,11,12,1.0,1.0,1.0*30
$GPRMC,234654.295,A,1203.651,S,07701.702,W,000.0,000.0,021124,000.0,W*7B
$GPGGA,234655.295,1203.651,S,07701.702,W,1,12,1.0,0.0,M,0.0,M,,*6A
$GPGSA,A,3,01,02,03,04,05,06,07,08,09,10,11,12,1.0,1.0,1.0*30
$GPRMC,234655.295,A,1203.651,S,07701.702,W,000.0,000.0,021124,000.0,W*7A
$GPGGA,234656.295,1203.651,S,07701.702,W,1,12,1.0,0.0,M,0.0,M,,*69
$GPGSA,A,3,01,02,03,04,05,06,07,08,09,10,11,12,1.0,1.0,1.0*30
$GPRMC,234656.295,A,1203.651,S,07701.702,W,000.4,090.0,021124,000.0,W*74
$GPGGA,234657.295,1203.651,S,07701.701,W,1,12,1.0,0.0,M,0.0,M,,*6B
$GPGSA,A,3,01,02,03,04,05,06,07,08,09,10,11,12,1.0,1.0,1.0*30
$GPRMC,234657.295,A,1203.651,S,07701.701,W,000.1,270.0,021124,000.0,W*7F
$GPGGA,234658.295,1203.651,S,07701.701,W,1,12,1.0,0.0,M,0.0,M,,*64
$GPGSA,A,3,01,02,03,04,05,06,07,08,09,10,11,12,1.0,1.0,1.0*30
$GPRMC,234658.295,A,1203.651,S,07701.701,W,000.1,000.0,021124,000.0,W*75
$GPGGA,234659.295,1203.651,S,07701.701,W,1,12,1.0,0.0,M,0.0,M,,*65
$GPGSA,A,3,01,02,03,04,05,06,07,08,09,10,11,12,1.0,1.0,1.0*30
$GPRMC,234659.295,A,1203.651,S,07701.701,W,000.0,000.0,021124,000.0,W*75
$GPGGA,234700.295,1203.651,S,07701.701,W,1,12,1.0,0.0,M,0.0,M,,*68
$GPGSA,A,3,01,02,03,04,05,06,07,08,09,10,11,12,1.0,1.0,1.0*30
$GPRMC,234700.295,A,1203.651,S,07701.701,W,000.0,000.0,021124,000.0,W*78
$GPGGA,234701.295,1203.651,S,07701.701,W,1,12,1.0,0.0,M,0.0,M,,*69
$GPGSA,A,3,01,02,03,04,05,06,07,08,09,10,11,12,1.0,1.0,1.0*30
$GPRMC,234701.295,A,1203.651,S,07701.701,W,000.0,000.0,021124,000.0,W*79
$GPGGA,234702.295,1203.651,S,07701.701,W,1,12,1.0,0.0,M,0.0,M,,*6A
$GPGSA,A,3,01,02,03,04,05,06,07,08,09,10,11,12,1.0,1.0,1.0*30
$GPRMC,234702.295,A,1203.651,S,07701.701,W,000.0,000.0,021124,000.0,W*7A
$GPGGA,234703.295,1203.651,S,07701.701,W,1,12,1.0,0.0,M,0.0,M,,*6B
$GPGSA,A,3,01,02,03,04,05,06,07,08,09,10,11,12,1.0,1.0,1.0*30
$GPRMC,234703.295,A,1203.651,S,07701.701,W,000.0,000.0,021124,000.0,W*7B
$GPGGA,234704.295,1203.651,S,07701.701,W,1,12,1.0,0.0,M,0.0,M,,*6C
$GPGSA,A,3,01,02,03,04,05,06,07,08,09,10,11,12,1.0,1.0,1.0*30
$GPRMC,234704.295,A,1203.651,S,07701.701,W,000.0,000.0,021124,000.0,W*7C
$GPGGA,234705.295,1203.651,S,07701.701,W,1,12,1.0,0.0,M,0.0,M,,*6D
$GPGSA,A,3,01,02,03,04,05,06,07,08,09,10,11,12,1.0,1.0,1.0*30
$GPRMC,234705.295,A,1203.651,S,07701.701,W,000.0,000.0,021124,000.0,W*7D
$GPGGA,234706.295,1203.651,S,07701.701,W,1,12,1.0,0.0,M,0.0,M,,*6E
$GPGSA,A,3,01,02,03,04,05,06,07,08,09,10,11,12,1.0,1.0,1.0*30
$GPRMC,234706.295,A,1203.651,S,07701.701,W,000.0,000.0,021124,000.0,W*7E
$GPGGA,234707.295,1203.651,S,07701.701,W,1,12,1.0,0.0,M,0.0,M,,*6F
$GPGSA,A,3,01,02,03,04,05,06,07,08,09,10,11,12,1.0,1.0,1.0*30
$GPRMC,234707.295,A,1203.651,S,07701.701,W,000.0,000.0,021124,000.0,W*7F
$GPGGA,234708.295,1203.651,S,07701.701,W,1,12,1.0,0.0,M,0.0,M,,*60
$GPGSA,A,3,01,02,03,04,05,06,07,08,09,10,11,12,1.0,1.0,1.0*30
$GPRMC,234708.295,A,1203.651,S,07701.701,W,000.3,270.0,021124,000.0,W*76
$GPGGA,234709.295,1203.651,S,07701.702,W,1,12,1.0,0.0,M,0.0,M,,*62
$GPGSA,A,3,01,02,03,04,05,06,07,08,09,10,11,12,1.0,1.0,1.0*30
$GPRMC,234709.295,A,1203.651,S,07701.702,W,000.3,000.0,021124,000.0,W*71
$GPGGA,234710.295,1203.651,S,07701.702,W,1,12,1.0,0.0,M,0.0,M,,*6A
$GPGSA,A,3,01,02,03,04,05,06,07,08,09,10,11,12,1.0,1.0,1.0*30
$GPRMC,234710.295,A,1203.651,S,07701.702,W,000.0,000.0,021124,000.0,W*7A
$GPGGA,234711.295,1203.651,S,07701.702,W,1,12,1.0,0.0,M,0.0,M,,*6B
$GPGSA,A,3,01,02,03,04,05,06,07,08,09,10,11,12,1.0,1.0,1.0*30
$GPRMC,234711.295,A,1203.651,S,07701.702,W,000.0,000.0,021124,000.0,W*7B
$GPGGA,234712.295,1203.651,S,07701.702,W,1,12,1.0,0.0,M,0.0,M,,*68
$GPGSA,A,3,01,02,03,04,05,06,07,08,09,10,11,12,1.0,1.0,1.0*30
$GPRMC,234712.295,A,1203.651,S,07701.702,W,000.0,000.0,021124,000.0,W*78
$GPGGA,234713.295,1203.651,S,07701.702,W,1,12,1.0,0.0,M,0.0,M,,*69
$GPGSA,A,3,01,02,03,04,05,06,07,08,09,10,11,12,1.0,1.0,1.0*30
$GPRMC,234713.295,A,1203.651,S,07701.702,W,000.0,000.0,021124,000.0,W*79
$GPGGA,234714.295,1203.651,S,07701.702,W,1,12,1.0,0.0,M,0.0,M,,*6E
$GPGSA,A,3,01,02,03,04,05,06,07,08,09,10,11,12,1.0,1.0,1.0*30
$GPRMC,234714.295,A,1203.651,S,07701.702,W,000.2,026.6,021124,000.0,W*7E
$GPGGA,234715.295,1203.651,S,07701.702,W,1,12,1.0,0.0,M,0.0,M,,*6F
$GPGSA,A,3,01,02,03,04,05,06,07,08,09,10,11,12,1.0,1.0,1.0*30
$GPRMC,234715.295,A,1203.651,S,07701.702,W,000.1,090.0,021124,000.0,W*77
$GPGGA,234716.295,1203.651,S,07701.701,W,1,12,1.0,0.0,M,0.0,M,,*6F
$GPGSA,A,3,01,02,03,04,05,06,07,08,09,10,11,12,1.0,1.0,1.0*30
$GPRMC,234716.295,A,1203.651,S,07701.701,W,000.2,063.4,021124,000.0,W*7C
$GPGGA,234717.295,1203.651,S,07701.701,W,1,12,1.0,0.0,M,0.0,M,,*6E
$GPGSA,A,3,01,02,03,04,05,06,07,08,09,10,11,12,1.0,1.0,1.0*30
$GPRMC,234717.295,A,1203.651,S,07701.701,W,000.1,270.0,021124,000.0,W*7A
$GPGGA,234718.295,1203.651,S,07701.701,W,1,12,1.0,0.0,M,0.0,M,,*61
$GPGSA,A,3,01,02,03,04,05,06,07,08,09,10,11,12,1.0,1.0,1.0*30
$GPRMC,234718.295,A,1203.651,S,07701.701,W,000.1,000.0,021124,000.0,W*70
$GPGGA,234719.295,1203.651,S,07701.701,W,1,12,1.0,0.0,M,0.0,M,,*60
$GPGSA,A,3,01,02,03,04,05,06,07,08,09,10,11,12,1.0,1.0,1.0*30
$GPRMC,234719.295,A,1203.651,S,07701.701,W,000.0,000.0,021124,000.0,W*70
$GPGGA,234720.295,1203.651,S,07701.701,W,1,12,1.0,0.0,M,0.0,M,,*6A
$GPGSA,A,3,01,02,03,04,05,06,07,08,09,10,11,12,1.0,1.0,1.0*30
$GPRMC,234720.295,A,1203.651,S,07701.701,W,000.0,000.0,021124,000.0,W*7A
$GPGGA,234721.295,1203.651,S,07701.701,W,1,12,1.0,0.0,M,0.0,M,,*6B
$GPGSA,A,3,01,02,03,04,05,06,07,08,09,10,11,12,1.0,1.0,1.0*30
$GPRMC,234721.295,A,1203.651,S,07701.701,W,000.0,000.0,021124,000.0,W*7B
$GPGGA,234722.295,1203.651,S,07701.701,W,1,12,1.0,0.0,M,0.0,M,,*68
$GPGSA,A,3,01,02,03,04,05,06,07,08,09,10,11,12,1.0,1.0,1.0*30
$GPRMC,234722.295,A,1203.651,S,07701.701,W,000.0,000.0,021124,000.0,W*78
$GPGGA,234723.295,1203.651,S,07701.701,W,1,12,1.0,0.0,M,0.0,M,,*69
$GPGSA,A,3,01,02,03,04,05,06,07,08,09,10,11,12,1.0,1.0,1.0*30
$GPRMC,234723.295,A,1203.651,S,07701.701,W,000.2,225.0,021124,000.0,W*7E
$GPGGA,234724.295,1203.651,S,07701.702,W,1,12,1.0,0.0,M,0.0,M,,*6D
$GPGSA,A,3,01,02,03,04,05,06,07,08,09,10,11,12,1.0,1.0,1.0*30
$GPRMC,234724.295,A,1203.651,S,07701.702,W,000.4,248.2,021124,000.0,W*75
$GPGGA,234725.295,1203.651,S,07701.702,W,1,12,1.0,0.0,M,0.0,M,,*6C
$GPGSA,A,3,01,02,03,04,05,06,07,08,09,10,11,12,1.0,1.0,1.0*30
$GPRMC,234725.295,A,1203.651,S,07701.702,W,000.3,225.0,021124,000.0,W*7A
$GPGGA,234726.295,1203.651,S,07701.702,W,1,12,1.0,0.0,M,0.0,M,,*6F
$GPGSA,A,3,01,02,03,04,05,06,07,08,09,10,11,12,1.0,1.0,1.0*30
$GPRMC,234726.295,A,1203.651,S,07701.702,W,000.3,000.0,021124,000.0,W*7C
$GPGGA,234727.295,1203.651,S,07701.702,W,1,12,1.0,0.0,M,0.0,M,,*6E
$GPGSA,A,3,01,02,03,04,05,06,07,08,09,10,11,12,1.0,1.0,1.0*30
$GPRMC,234727.295,A,1203.651,S,07701.702,W,000.0,000.0,021124,000.0,W*7E
$GPGGA,234728.295,1203.651,S,07701.702,W,1,12,1.0,0.0,M,0.0,M,,*61
$GPGSA,A,3,01,02,03,04,05,06,07,08,09,10,11,12,1.0,1.0,1.0*30
$GPRMC,234728.295,A,1203.651,S,07701.702,W,000.0,000.0,021124,000.0,W*71
$GPGGA,234729.295,1203.651,S,07701.702,W,1,12,1.0,0.0,M,0.0,M,,*60
$GPGSA,A,3,01,02,03,04,05,06,07,08,09,10,11,12,1.0,1.0,1.0*30
$GPRMC,234729.295,A,1203.651,S,07701.702,W,000.0,000.0,021124,000.0,W*70
$GPGGA,234730.295,1203.651,S,07701.702,W,1,12,1.0,0.0,M,0.0,M,,*68
$GPGSA,A,3,01,02,03,04,05,06,07,08,09,10,11,12,1.0,1.0,1.0*30
$GPRMC,234730.295,A,1203.651,S,07701.702,W,000.0,000.0,021124,000.0,W*78
